[
  {
    "id": "506497",
    "organisation": {
      "type": "mat",
      "name": "Bronson Alcott Academy",
      "ageGroup": "Secondary",
      "isSpecialSchool": false,
      "locations": [
        {
          "id": "540cd920-fbd0-48b2-b05c-902a0288b7e5",
          "name": "Boom Primary School",
          "address": {
            "address1": "123 Main Street",
            "town": "Some town",
            "postcode": "AB1 2CD"
          }
        },
        {
          "id": "f2bf4205-79cc-4ba9-ad43-187e60371b48",
          "name": "Town Primary School",
          "address": {
            "address1": "321 Main Street",
            "town": "Some place",
            "postcode": "AB2 3CD"
          }
        }
      ],
      "address": {
        "line1": "Friendship Way",
        "town": "London",
        "county": "London",
        "postcode": "E15 2JQ"
      }
    },
    "location": {
      "id": "540cd920-fbd0-48b2-b05c-902a0288b7e5",
      "name": "Boom Primary School",
      "address": {
        "address1": "123 Main Street",
        "town": "Some town",
        "postcode": "AB1 2CD"
      }
    },
    "role": "Middle leader",
    "isRoleSuitableForEarlyCareeerTeachers": "Yes",
    "roleHasSendResponsibilities": "Yes",
    "title": "Teacher of Geography",
    "contractType": "Maternity or parental leave cover",
    "subjects": "Food Technology",
    "workingPatterns": "Part time",
    "workingPatternDetails": "20 hours per week",
    "salary": {
      "fullTimeEquivalentSalary": "£25,000"
    },
    "additionalAllowances": "TLR"
  },
  {
    "id": "315324",
    "organisation": {
      "type": "mat",
      "name": "Sommerset Secondary School",
      "ageGroup": "Secondary",
      "isSpecialSchool": false,
      "locations": [
        {
          "id": "eacce8f2-0b44-4e50-9cd3-16d8579f23b9",
          "name": "Boom Primary School",
          "address": {
            "address1": "123 Main Street",
            "town": "Some town",
            "postcode": "AB1 2CD"
          }
        },
        {
          "id": "f38c0246-ebed-40fc-a50c-ec995974c5ce",
          "name": "Town Primary School",
          "address": {
            "address1": "321 Main Street",
            "town": "Some place",
            "postcode": "AB2 3CD"
          }
        }
      ],
      "address": {
        "line1": "tratford Road",
        "town": "Henley-in-Arden",
        "county": "Warwickshire",
        "postcode": "C95 6AD"
      }
    },
    "location": {
      "id": "f38c0246-ebed-40fc-a50c-ec995974c5ce",
      "name": "Town Primary School",
      "address": {
        "address1": "321 Main Street",
        "town": "Some place",
        "postcode": "AB2 3CD"
      }
    },
    "role": "Middle leader",
    "isRoleSuitableForEarlyCareeerTeachers": "Yes",
    "roleHasSendResponsibilities": "Yes",
    "title": "Science teacher",
    "contractType": "Fixed term",
    "subjects": "Classics",
    "workingPatterns": "Job share",
    "workingPatternDetails": "20 hours per week",
    "salary": {
      "fullTimeEquivalentSalary": "£25,000"
    },
    "additionalAllowances": "TLR"
  },
  {
    "id": "917963",
    "organisation": {
      "type": "mat",
      "name": "Sommerset Secondary School",
      "ageGroup": "Secondary",
      "isSpecialSchool": false,
      "locations": [
        {
          "id": "eacce8f2-0b44-4e50-9cd3-16d8579f23b9",
          "name": "Boom Primary School",
          "address": {
            "address1": "123 Main Street",
            "town": "Some town",
            "postcode": "AB1 2CD"
          }
        },
        {
          "id": "f38c0246-ebed-40fc-a50c-ec995974c5ce",
          "name": "Town Primary School",
          "address": {
            "address1": "321 Main Street",
            "town": "Some place",
            "postcode": "AB2 3CD"
          }
        }
      ],
      "address": {
        "line1": "tratford Road",
        "town": "Henley-in-Arden",
        "county": "Warwickshire",
        "postcode": "C95 6AD"
      }
    },
    "location": {
      "id": "f38c0246-ebed-40fc-a50c-ec995974c5ce",
      "name": "Town Primary School",
      "address": {
        "address1": "321 Main Street",
        "town": "Some place",
        "postcode": "AB2 3CD"
      }
    },
    "role": "Teacher",
    "isRoleSuitableForEarlyCareeerTeachers": "Yes",
    "roleHasSendResponsibilities": "Yes",
    "title": "Class teacher",
    "contractType": "Fixed term",
    "subjects": "Religious education",
    "workingPatterns": "Part time",
    "workingPatternDetails": "20 hours per week",
    "salary": {
      "fullTimeEquivalentSalary": "£25,000"
    },
    "additionalAllowances": null
  },
  {
    "id": "456431",
    "organisation": {
      "type": "mat",
      "name": "Sommerset Secondary School",
      "ageGroup": "Secondary",
      "isSpecialSchool": false,
      "locations": [
        {
          "id": "eacce8f2-0b44-4e50-9cd3-16d8579f23b9",
          "name": "Boom Primary School",
          "address": {
            "address1": "123 Main Street",
            "town": "Some town",
            "postcode": "AB1 2CD"
          }
        },
        {
          "id": "f38c0246-ebed-40fc-a50c-ec995974c5ce",
          "name": "Town Primary School",
          "address": {
            "address1": "321 Main Street",
            "town": "Some place",
            "postcode": "AB2 3CD"
          }
        }
      ],
      "address": {
        "line1": "tratford Road",
        "town": "Henley-in-Arden",
        "county": "Warwickshire",
        "postcode": "C95 6AD"
      }
    },
    "location": {
      "id": "f38c0246-ebed-40fc-a50c-ec995974c5ce",
      "name": "Town Primary School",
      "address": {
        "address1": "321 Main Street",
        "town": "Some place",
        "postcode": "AB2 3CD"
      }
    },
    "role": "Middle leader",
    "isRoleSuitableForEarlyCareeerTeachers": "No",
    "roleHasSendResponsibilities": "No",
    "title": "Teacher of computing",
    "contractType": "Permanent",
    "subjects": "Mathematics",
    "workingPatterns": "Flexible",
    "workingPatternDetails": "20 hours per week",
    "salary": {
      "fullTimeEquivalentSalary": "£42,000"
    },
    "additionalAllowances": "TLR"
  },
  {
    "id": "954587",
    "organisation": {
      "type": "mat",
      "name": "Sommerset Secondary School",
      "ageGroup": "Secondary",
      "isSpecialSchool": false,
      "locations": [
        {
          "id": "eacce8f2-0b44-4e50-9cd3-16d8579f23b9",
          "name": "Boom Primary School",
          "address": {
            "address1": "123 Main Street",
            "town": "Some town",
            "postcode": "AB1 2CD"
          }
        },
        {
          "id": "f38c0246-ebed-40fc-a50c-ec995974c5ce",
          "name": "Town Primary School",
          "address": {
            "address1": "321 Main Street",
            "town": "Some place",
            "postcode": "AB2 3CD"
          }
        }
      ],
      "address": {
        "line1": "tratford Road",
        "town": "Henley-in-Arden",
        "county": "Warwickshire",
        "postcode": "C95 6AD"
      }
    },
    "location": {
      "id": "eacce8f2-0b44-4e50-9cd3-16d8579f23b9",
      "name": "Boom Primary School",
      "address": {
        "address1": "123 Main Street",
        "town": "Some town",
        "postcode": "AB1 2CD"
      }
    },
    "role": "Teaching assistant",
    "isRoleSuitableForEarlyCareeerTeachers": "No",
    "roleHasSendResponsibilities": "No",
    "title": "English teacher",
    "contractType": "Permanent",
    "subjects": "Relationships and sex education",
    "workingPatterns": "Job share",
    "workingPatternDetails": "20 hours per week",
    "salary": {
      "fullTimeEquivalentSalary": "£42,000"
    },
    "additionalAllowances": "TLR"
  },
  {
    "id": "151775",
    "organisation": {
      "type": "school",
      "name": "Leadenham Church of England Primary School",
      "ageGroup": "Primary",
      "isSpecialSchool": false,
      "locations": [
        {
          "id": "d3f99884-92f4-45a4-b806-9b848128a803",
          "name": "Boom Primary School",
          "address": {
            "address1": "123 Main Street",
            "town": "Some town",
            "postcode": "AB1 2CD"
          }
        }
      ],
      "address": {
        "line1": "52 The Crescent",
        "line2": "Tavistock",
        "town": "Mill Hill",
        "county": "Barnet",
        "postcode": "NW7 4NA"
      }
    },
    "location": {
      "id": "d3f99884-92f4-45a4-b806-9b848128a803",
      "name": "Boom Primary School",
      "address": {
        "address1": "123 Main Street",
        "town": "Some town",
        "postcode": "AB1 2CD"
      }
    },
    "role": "Middle leader",
    "isRoleSuitableForEarlyCareeerTeachers": "Yes",
    "roleHasSendResponsibilities": "Yes",
    "title": "Science teacher",
    "contractType": "Fixed term",
    "subjects": "German",
    "workingPatterns": "Full time",
    "workingPatternDetails": "Monday to Wedensday",
    "salary": {
      "fullTimeEquivalentSalary": "£33,000"
    },
    "additionalAllowances": "SEN"
  },
  {
    "id": "201926",
    "organisation": {
      "type": "mat",
      "name": "Tamsin Academy",
      "ageGroup": "Secondary",
      "isSpecialSchool": false,
      "locations": [
        {
          "id": "796f2d9f-77b9-458b-a416-8a690cceeb79",
          "name": "Boom Primary School",
          "address": {
            "address1": "123 Main Street",
            "town": "Some town",
            "postcode": "AB1 2CD"
          }
        },
        {
          "id": "aeb49c73-2620-42da-a3e2-a7364f4bd132",
          "name": "Town Primary School",
          "address": {
            "address1": "321 Main Street",
            "town": "Some place",
            "postcode": "AB2 3CD"
          }
        }
      ],
      "address": {
        "line1": "c/o Tile Kiln Lane",
        "town": "Palmers Green",
        "county": "London",
        "postcode": "N13 6BY"
      }
    },
    "location": {
      "id": "aeb49c73-2620-42da-a3e2-a7364f4bd132",
      "name": "Town Primary School",
      "address": {
        "address1": "321 Main Street",
        "town": "Some place",
        "postcode": "AB2 3CD"
      }
    },
    "role": "Teaching assistant",
    "isRoleSuitableForEarlyCareeerTeachers": "No",
    "roleHasSendResponsibilities": "Yes",
    "title": "Class teacher",
    "contractType": "Permanent",
    "subjects": "Dance",
    "workingPatterns": "Flexible",
    "workingPatternDetails": "20 hours per week",
    "salary": {
      "fullTimeEquivalentSalary": "£25,000"
    },
    "additionalAllowances": "TLR"
  },
  {
    "id": "444223",
    "organisation": {
      "type": "mat",
      "name": "Tamsin Academy",
      "ageGroup": "Secondary",
      "isSpecialSchool": false,
      "locations": [
        {
          "id": "796f2d9f-77b9-458b-a416-8a690cceeb79",
          "name": "Boom Primary School",
          "address": {
            "address1": "123 Main Street",
            "town": "Some town",
            "postcode": "AB1 2CD"
          }
        },
        {
          "id": "aeb49c73-2620-42da-a3e2-a7364f4bd132",
          "name": "Town Primary School",
          "address": {
            "address1": "321 Main Street",
            "town": "Some place",
            "postcode": "AB2 3CD"
          }
        }
      ],
      "address": {
        "line1": "c/o Tile Kiln Lane",
        "town": "Palmers Green",
        "county": "London",
        "postcode": "N13 6BY"
      }
    },
    "location": {
      "id": "796f2d9f-77b9-458b-a416-8a690cceeb79",
      "name": "Boom Primary School",
      "address": {
        "address1": "123 Main Street",
        "town": "Some town",
        "postcode": "AB1 2CD"
      }
    },
    "role": "Teacher",
    "isRoleSuitableForEarlyCareeerTeachers": "Yes",
    "roleHasSendResponsibilities": "Yes",
    "title": "Teacher of religious education",
    "contractType": "Fixed term",
    "subjects": "Religious education",
    "workingPatterns": "Job share",
    "workingPatternDetails": "20 hours per week",
    "salary": {
      "fullTimeEquivalentSalary": "£42,000"
    },
    "additionalAllowances": "TLR"
  },
  {
    "id": "471660",
    "organisation": {
      "type": "school",
      "name": "Leadenham Church of England Primary School",
      "ageGroup": "Primary",
      "isSpecialSchool": false,
      "locations": [
        {
          "id": "d3f99884-92f4-45a4-b806-9b848128a803",
          "name": "Boom Primary School",
          "address": {
            "address1": "123 Main Street",
            "town": "Some town",
            "postcode": "AB1 2CD"
          }
        }
      ],
      "address": {
        "line1": "52 The Crescent",
        "line2": "Tavistock",
        "town": "Mill Hill",
        "county": "Barnet",
        "postcode": "NW7 4NA"
      }
    },
    "location": {
      "id": "d3f99884-92f4-45a4-b806-9b848128a803",
      "name": "Boom Primary School",
      "address": {
        "address1": "123 Main Street",
        "town": "Some town",
        "postcode": "AB1 2CD"
      }
    },
    "role": "Teaching assistant",
    "isRoleSuitableForEarlyCareeerTeachers": "Yes",
    "roleHasSendResponsibilities": "No",
    "title": "Class teacher",
    "contractType": "Permanent",
    "subjects": "Computing",
    "workingPatterns": "Part time",
    "workingPatternDetails": "20 hours per week",
    "salary": {
      "fullTimeEquivalentSalary": "£25,000"
    },
    "additionalAllowances": "SEN"
  }
]